[{"id": 1, "category": "prirodniy_park", "lat": 60.240335793009, "date": "1999-09-14", "square": 189100.0, "name": "Вепсский лес", "lng": 34.8668657921}, {"id": 2, "category": "zakaznik", "lat": 58.738699124477, "date": "1979-02-26", "square": 5656.0, "name": "Белый Камень", "lng": 30.447279677853}, {"id": 3, "category": "zakaznik", "lat": 60.299283490789, "date": "1996-12-25", "square": 53616.0, "name": "Березовые острова", "lng": 28.478832523038}, {"id": 4, "category": "zakaznik", "lat": 60.240026074877, "date": "1976-03-27", "square": 392.8, "name": "Болото Ламмин-Суо", "lng": 29.825483571272}, {"id": 5, "category": "zakaznik", "lat": 60.343358155928, "date": "1976-03-27", "square": 1044.0, "name": "Болото Озерное", "lng": 29.56912915753}, {"id": 6, "category": "zakaznik", "lat": 60.518901715838, "date": "1976-03-29", "square": 11304.1, "name": "Выборгский", "lng": 28.578943208583}, {"id": 7, "category": "zakaznik", "lat": 60.24954852552, "date": "1996-07-26", "square": 7654.0, "name": "Гладышевский", "lng": 29.394025296093}, {"id": 8, "category": "zakaznik", "lat": 59.145500683822, "date": "1976-03-29", "square": 14700.0, "name": "Глебовское болото", "lng": 30.637901489721}, {"id": 9, "category": "zakaznik", "lat": 59.735561932133, "date": "1976-03-29", "square": 1599.5, "name": "Гостилицкий", "lng": 29.549844272932}, {"id": 10, "category": "zakaznik", "lat": 60.617513321698, "date": "1976-03-29", "square": 7613.5, "name": "Гряда Вярямянселькя", "lng": 30.01468356884}, {"id": 11, "category": "zakaznik", "lat": 59.607878718595, "date": "1976-03-29", "square": 321.8, "name": "Дубравы у деревни Велькота", "lng": 28.845869236439}, {"id": 12, "category": "zakaznik", "lat": 59.609899832812, "date": "1976-03-29", "square": 16146.3, "name": "Котельский", "lng": 28.587239657464}, {"id": 13, "category": "zakaznik", "lat": 59.7284149213, "date": "1975-04-09", "square": 59950.0, "name": "Кургальский", "lng": 28.104819468845}, {"id": 14, "category": "zakaznik", "lat": 59.971470063065, "date": "2007-04-03", "square": 6344.7, "name": "Лебяжий", "lng": 29.444398635403}, {"id": 15, "category": "zakaznik", "lat": 60.240450903096, "date": "1976-04-29", "square": 1003.0, "name": "Линдуловская роща", "lng": 29.539604493743}, {"id": 16, "category": "zakaznik", "lat": 59.448929916328, "date": "1976-03-19", "square": 28260.7, "name": "Лисинский", "lng": 30.630927506019}, {"id": 17, "category": "zakaznik", "lat": 60.816967466377, "date": "1976-03-29", "square": 3900.0, "name": "Озеро Мелководное", "lng": 29.466732779881}, {"id": 18, "category": "zakaznik", "lat": 59.232696372856, "date": "1976-03-29", "square": 778.5, "name": "Ракитинский", "lng": 30.206099224789}, {"id": 19, "category": "zakaznik", "lat": 60.624501660821, "date": "1976-03-29", "square": 10521.2, "name": "Раковые озера", "lng": 29.406075590107}, {"id": 20, "category": "zakaznik", "lat": 59.173380061208, "date": "1991-04-08", "square": 14700.0, "name": "Север Мшинского болота", "lng": 30.2779026866}, {"id": 21, "category": "zakaznik", "lat": 58.778427456746, "date": "1976-03-29", "square": 11825.0, "name": "Сяберский", "lng": 29.136533461357}, {"id": 22, "category": "zakaznik", "lat": 58.581075814889, "date": "1976-03-29", "square": 7100.0, "name": "Череменецкий", "lng": 29.874001844452}, {"id": 23, "category": "zakaznik", "lat": 59.371976803406, "date": "1976-03-29", "square": 6434.0, "name": "Чистый мох", "lng": 32.159298571325}, {"id": 24, "category": "zakaznik", "lat": 58.782758720882, "date": "1996-12-26", "square": 5942.8, "name": "Шалово-Перечицкий", "lng": 29.975320900651}, {"id": 25, "category": "zakaznik", "lat": 60.624324704667, "date": "2012-05-14", "square": 6858.0, "name": "Кивипарк", "lng": 28.379949131528}, {"id": 26, "category": "pamyatnik_prirodi", "lat": 58.850590168161, "date": "1996-12-26", "square": 270.0, "name": "Геологические обнажения девона и штольни на реке Оредеж у деревни Борщово (озеро Антоново)", "lng": 30.385812330189}, {"id": 27, "category": "pamyatnik_prirodi", "lat": 58.889266330986, "date": "1996-12-26", "square": 225.0, "name": "Геологические обнажения девона на реке Оредеж у поселка Ям-Тесово", "lng": 30.540193390836}, {"id": 28, "category": "pamyatnik_prirodi", "lat": 59.006612818099, "date": "1996-12-26", "square": 650.0, "name": "Геологические обнажения девонских и ордовикских пород на реке Сабе", "lng": 29.100371502941}, {"id": 29, "category": "pamyatnik_prirodi", "lat": 59.415921244482, "date": "1996-12-25", "square": 950.0, "name": "Истоки реки Оредеж в урочище Донцо", "lng": 29.800123901178}, {"id": 30, "category": "pamyatnik_prirodi", "lat": 59.887662918894, "date": "1996-12-26", "square": 160.0, "name": "Каньон реки Лава", "lng": 31.587312887803}, {"id": 31, "category": "pamyatnik_prirodi", "lat": 59.349645922572, "date": "2009-06-29", "square": 58.7, "name": "Музей-усадьба Н.К. Рериха", "lng": 29.519510006375}, {"id": 32, "category": "pamyatnik_prirodi", "lat": 59.350704261255, "date": "1996-12-26", "square": 120.0, "name": "Геологические обнажения девона на реке Оредеж у поселка Белогорка", "lng": 30.142272248293}, {"id": 33, "category": "pamyatnik_prirodi", "lat": 60.565074613017, "date": "1976-03-29", "square": 1012.2, "name": "Озеро Красное", "lng": 29.679359959799}, {"id": 34, "category": "pamyatnik_prirodi", "lat": 61.161216078651, "date": "1976-03-29", "square": 629.5, "name": "Озеро Ястребиное", "lng": 29.701698195293}, {"id": 35, "category": "pamyatnik_prirodi", "lat": 60.650253385128, "date": "1976-03-29", "square": 54.0, "name": "Остров Густой", "lng": 28.536909332959}, {"id": 36, "category": "pamyatnik_prirodi", "lat": 59.737244055459, "date": "1976-03-29", "square": 158.9, "name": "Радоновые источники и озера у деревни Лопухника", "lng": 29.405977354696}, {"id": 37, "category": "pamyatnik_prirodi", "lat": 59.277727831336, "date": "1996-12-26", "square": 1034.0, "name": "Река Рагуша", "lng": 33.93046158703}, {"id": 38, "category": "pamyatnik_prirodi", "lat": 59.660285326297, "date": "1976-03-29", "square": 328.8, "name": "Саблинский", "lng": 30.803083460013}, {"id": 39, "category": "pamyatnik_prirodi", "lat": 60.011930847707, "date": "1996-12-26", "square": 220.0, "name": "Староладожский", "lng": 32.309038894531}, {"id": 40, "category": "pamyatnik_prirodi", "lat": 61.13715865398, "date": "1976-03-29", "square": 640.0, "name": "Щелейки", "lng": 35.672211313847}, {"id": 41, "category": "pamyatnik_prirodi", "lat": 60.166804838239, "date": "2014-11-10", "square": 59.0, "name": "Токсовские высоты", "lng": 30.526275318862}, {"id": 42, "category": "zakaznik", "lat": 60.0346, "date": "2015-11-30", "square": 2304.7, "name": "Коккоревский", "lng": 31.08738}]